[{
    "address": "251 Mercer St, New York, NY 10012",
    "coordinates": {
        "lat": 40.7286679,
        "lng": -73.9956593
    },
    "name": "Courant"
}, {
    "address": "5 MetroTech Center, Brooklyn, NY 11201",
    "coordinates": {
        "lat": 40.6946212,
        "lng": -73.9856322
    },
    "name": "Dibner Library"
}, {
    "address": "238 Thompson St, New York, NY 10012",
    "coordinates": {
        "lat": 40.7298729,
        "lng": -73.9982425
    },
    "name": "GCASL"
}, {
    "address": "6 MetroTech Center, Brooklyn, NY 11201",
    "coordinates": {
        "lat": 40.6942285,
        "lng": -73.9866394
    },
    "name": "Jacobs Academic Building"
}, {
    "address": "246 Greene Street, New York, NY 10003",
    "coordinates": {
        "lat": 40.7301019,
        "lng": -73.9948055
    },
    "name": "Kimball Hall"
}, {
    "address": "60 Washington Square S, New York, NY 10012",
    "coordinates": {
        "lat": 40.7297685,
        "lng": -73.99790039999999
    },
    "name": "Kimmel"
}, {
    "address": "539 LaGuardia Pl, New York, NY 10012",
    "coordinates": {
        "lat": 40.7284709,
        "lng": -73.99801269999999
    },
    "name": "LaGuardia Co-op"
}, {
    "address": "16 Washington Pl, New York, NY 10003",
    "coordinates": {
        "lat": 40.7295281,
        "lng": -73.9951538
    },
    "name": "Leslie eLab"
}, {
    "address": "33 Washington Square W, New York, NY 10011",
    "coordinates": {
        "lat": 40.7316356,
        "lng": -73.9995454
    },
    "name": "Lipton Commuter Lounge"
}, {
    "address": "82 Washington Square E, New York, NY 10003",
    "coordinates": {
        "lat": 40.7298842,
        "lng": -73.996078
    },
    "name": "Pless Hall"
}, {
    "address": "1 Washington Square N, New York, NY 10003",
    "coordinates": {
        "lat": 40.73104310000001,
        "lng": -73.9957041
    },
    "name": "Sliver"
}, {
    "address": "239 Greene Street, New York, NY 10003",
    "coordinates": {
        "lat": 40.7296991,
        "lng": -73.99548610000001
    },
    "name": "Steinhart East"
}, {
    "address": "721 Broadway, New York, NY 10003",
    "coordinates": {
        "lat": 40.7295102,
        "lng": -73.9938432
    },
    "name": "Tisch"
}, {
    "address": "5-11 University Place, New York, NY 10003",
    "coordinates": {
        "lat": 40.7310963,
        "lng": -73.9949366
    },
    "name": "Downstein"
}, {
    "address": "6 MetroTech Center, Brooklyn, NY 11201",
    "coordinates": {
        "lat": 40.6942285,
        "lng": -73.9866394
    },
    "name": "Jasper Kane Caf√©"
}, {
    "address": "60 Washington Square S, New York, NY 10012",
    "coordinates": {
        "lat": 40.7297685,
        "lng": -73.99790039999999
    },
    "name": "Kimmel"
}, {
    "address": "33 Washington Square W, New York, NY 10011",
    "coordinates": {
        "lat": 40.7316356,
        "lng": -73.9995454
    },
    "name": "Lipton Dining Hall"
}, {
    "address": "140 E 14th Street, New York, NY 10003",
    "coordinates": {
        "lat": 40.7333075,
        "lng": -73.98819879999999
    },
    "name": "Palladium"
}, {
    "address": "150 W 17th St, New York, NY 10011",
    "coordinates": {
        "lat": 40.740088,
        "lng": -73.9977552
    },
    "name": "Rubin"
}, {
    "address": "75 3rd Ave, New York, NY 10003",
    "coordinates": {
        "lat": 40.7313942,
        "lng": -73.9881904
    },
    "name": "Third North"
}, {
    "address": "110 E 14th St, New York, NY 10003",
    "coordinates": {
        "lat": 40.7337101,
        "lng": -73.9891964
    },
    "name": "U-Hall"
}, {
    "address": "5-11 University Place, New York, NY 10003",
    "coordinates": {
        "lat": 40.7310963,
        "lng": -73.9949366
    },
    "name": "Upstein"
}]
